{"history":[{"id":"49.2608724-123.113952","name":"Vancouver","lat":49.2608724,"lon":-123.113952,"state":"British Columbia","country":"CA"},{"id":"31.778824235.2257626","name":"Jerusalem","lat":31.7788242,"lon":35.2257626,"state":"Jerusalem District","country":"IL"},{"id":"-34.6075682-58.4370894","name":"Autonomous City of Buenos Aires","lat":-34.6075682,"lon":-58.4370894,"state":"state not found","country":"AR"},{"id":"6.2443382-75.573553","name":"Medellín","lat":6.2443382,"lon":-75.573553,"state":"Antioquia","country":"CO"},{"id":"4.6533326-74.083652","name":"Bogota","lat":4.6533326,"lon":-74.083652,"state":"state not found","country":"CO"},{"id":"10.6307159-74.9209378","name":"Sabanalarga","lat":10.6307159,"lon":-74.9209378,"state":"Atlántico","country":"CO"}]}